City_ID,City,Lat,Lng,Max Temp,Humidity,Cloudiness,Wind Speed,Country,Date
0,albany,42.6001,-73.9662,25.91,80,89,0.45,US,1724858868
1,arraial do cabo,-22.9661,-42.0278,23.98,46,20,4.12,BR,1724858791
2,margaret river,-33.95,115.0667,17.34,85,100,11.21,AU,1724858791
3,hermanus,-34.4187,19.2345,9.89,56,93,6.74,ZA,1724859064
4,longyearbyen,78.2186,15.6401,7.91,61,0,5.14,SJ,1724858877
5,igarapava,-20.0383,-47.7469,31.12,27,1,3.5,BR,1724858825
6,escanaba,45.7453,-87.0646,17.98,88,100,5.14,US,1724858971
7,edinburgh of the seven seas,-37.0676,-12.3116,13.82,86,100,17.78,SH,1724858807
8,mianyang,31.4593,104.7542,27.55,83,94,2.52,CN,1724859070
9,stanley,54.868,-1.6985,20.1,70,20,3.6,GB,1724859071
10,iqaluit,63.7506,-68.5145,7.85,70,75,11.83,CA,1724858880
11,udachny,66.4167,112.4,7.84,71,99,1.7,RU,1724858798
12,sumbawa besar,-8.5,117.4333,21.72,78,81,1.51,ID,1724859074
13,gunjur,13.2019,-16.7339,33.04,66,75,7.72,GM,1724859075
14,bilibino,68.0546,166.4372,0.41,88,100,2.61,RU,1724858792
15,coffeyville,37.0373,-95.6164,31.16,61,0,3.09,US,1724858893
16,puerto natales,-51.7236,-72.4875,6.25,61,40,4.12,CL,1724858911
17,pisco,-13.7,-76.2167,17.23,82,100,3.09,PE,1724859080
18,port-aux-francais,-49.35,70.2167,5.03,90,100,6.64,TF,1724858811
19,atamanovka,51.93,113.63,11.24,49,83,0.32,RU,1724859094
20,invercargill,-46.4,168.35,10.57,93,14,3.58,NZ,1724858892
21,prince albert,53.2001,-105.7677,16.97,72,75,4.12,CA,1724859096
22,ushuaia,-54.8,-68.3,3.81,81,40,10.8,AR,1724859097
23,port lincoln,-34.7333,135.8667,13.62,64,71,5.15,AU,1724859098
24,merizo village,13.2658,144.6691,29.31,87,100,7.09,GU,1724859099
25,el granada,37.5027,-122.4694,20.06,74,20,2.57,US,1724859101
26,waitangi,-43.9535,-176.5597,11.57,97,32,1.79,NZ,1724858845
27,flying fish cove,-10.4217,105.6791,24.82,83,75,5.66,CX,1724859103
28,guadalupe,25.6833,-100.25,27.9,74,75,0.0,MX,1724859061
29,adamstown,-25.066,-130.1015,18.54,66,100,1.71,PN,1724858789
30,kodiak,57.79,-152.4072,8.73,93,100,0.0,US,1724859106
31,bereznik,62.8551,42.7072,15.62,52,77,2.35,RU,1724859108
32,new norfolk,-42.7826,147.0587,7.73,97,100,4.9,AU,1724859112
33,ilulissat,69.2167,-51.1,4.48,64,100,2.69,GL,1724858818
34,idri,27.5,13.2667,39.35,13,2,0.86,LY,1724859114
35,grytviken,-54.2811,-36.5092,3.86,88,100,2.26,GS,1724858773
36,kijang,35.2442,129.2139,24.85,88,88,7.73,KR,1724859116
37,blackmans bay,-43.0167,147.3167,8.07,83,85,1.79,AU,1724858797
38,wailua homesteads,22.0669,-159.378,21.53,95,19,0.45,US,1724858790
39,fort mcmurray,56.7268,-111.381,15.77,88,100,1.54,CA,1724859120
40,argo,37.6333,22.7333,28.87,41,85,3.07,GR,1724859122
41,nadi,-17.8,177.4167,17.0,82,20,1.03,FJ,1724858984
42,sao vicente,-23.9631,-46.3919,20.98,52,20,4.12,BR,1724858875
43,weno,7.4515,151.8468,26.97,94,100,1.54,FM,1724858917
44,alice springs,-23.7,133.8833,17.75,45,3,3.09,AU,1724858844
45,atafu village,-8.5421,-172.5159,28.14,76,9,7.39,TK,1724859129
46,sola,-13.8833,167.55,25.1,70,100,9.99,VU,1724859130
47,linhares,-19.3911,-40.0722,24.73,55,77,4.78,BR,1724859131
48,magadan,59.5667,150.8,7.55,68,47,3.78,RU,1724859133
49,dwarka,22.2394,68.9678,26.15,95,100,18.56,IN,1724859134
50,nar'yan-mar,67.6713,53.087,12.71,69,88,7.37,RU,1724858778
51,bethel,41.3712,-73.414,29.95,69,0,2.06,US,1724858787
52,markaz-e hukumat-e darweshan,31.1323,64.1934,33.33,7,0,2.17,AF,1724859137
53,ola,59.5833,151.2833,7.85,65,53,4.48,RU,1724858821
54,san luis de la loma,17.2706,-100.8939,29.86,69,80,2.38,MX,1724859139
55,yellowknife,62.456,-114.3525,14.67,90,75,4.63,CA,1724858853
56,hadibu,12.65,54.0333,27.56,74,72,7.55,YE,1724859142
57,bredasdorp,-34.5322,20.0403,8.02,52,96,5.72,ZA,1724859143
58,nova sintra,14.8667,-24.7167,27.12,80,51,3.04,CV,1724858831
59,kavieng,-2.5744,150.7967,27.85,81,97,5.51,PG,1724859145
60,port mathurin,-19.6833,63.4167,21.58,73,80,12.82,MU,1724858815
61,georgetown,5.4112,100.3354,27.96,91,40,1.54,MY,1724859094
62,ostersund,63.1792,14.6357,20.9,58,0,1.54,SE,1724859149
63,port macquarie,-31.4333,152.9167,18.01,49,83,1.97,AU,1724858817
64,vadso,70.0744,29.7487,14.09,62,75,1.54,NO,1724859151
65,west island,-12.1568,96.8225,26.99,74,100,5.66,CC,1724859152
66,cannonvale,-20.2833,148.7,20.66,90,10,2.92,AU,1724859153
67,arteche,12.2645,125.4048,25.73,89,100,0.91,PH,1724859156
68,penzance,50.1186,-5.5371,19.38,82,40,5.66,GB,1724859157
69,bodo,67.28,14.405,13.3,93,75,9.26,NO,1724859158
70,alotau,-10.3069,150.4462,22.98,95,19,1.79,PG,1724859159
71,george town,5.4112,100.3354,27.96,91,40,1.54,MY,1724859160
72,atar,20.5169,-13.0499,42.89,13,99,7.53,MR,1724859162
73,enewetak,11.3474,162.3373,28.45,78,99,6.11,MH,1724859163
74,suntar,62.1444,117.6319,8.91,68,100,2.04,RU,1724859034
75,ibimirim,-8.5406,-37.6903,31.81,24,8,8.73,BR,1724859165
76,dul'durga,50.6761,113.5931,17.78,45,100,4.04,RU,1724859166
77,nikolayevsk-on-amure,53.1406,140.73,16.13,92,24,1.94,RU,1724859167
78,sinan,34.8262,126.1086,25.25,78,0,5.35,KR,1724859170
79,hasaki,35.7333,140.8333,26.48,84,100,2.29,JP,1724859171
80,haiku-pauwela,20.9219,-156.3051,22.36,91,75,5.14,US,1724859172
81,college,64.8569,-147.8028,9.39,91,75,0.0,US,1724859173
82,zeribet el oued,34.6828,6.5111,35.97,24,33,1.6,DZ,1724859174
83,celendin,-6.8703,-78.1517,18.02,40,11,1.66,PE,1724859176
84,dali,25.7,100.1833,19.26,81,59,0.43,CN,1724859177
85,akureyri,65.6835,-18.0878,6.96,93,100,5.66,IS,1724858922
86,shingu,33.7333,135.9833,25.42,90,100,2.29,JP,1724859179
87,isafjordur,66.0755,-23.124,7.02,87,20,5.66,IS,1724858806
88,kerikeri,-35.2268,173.9474,10.51,93,100,2.61,NZ,1724859181
89,anadyr,64.75,177.4833,10.28,71,0,1.0,RU,1724858886
90,port elizabeth,-33.918,25.5701,11.16,65,20,12.35,ZA,1724859149
91,yanam,16.7333,82.2167,24.68,95,100,1.64,IN,1724859185
92,tambopata,-12.7333,-69.1833,25.94,65,0,2.57,PE,1724859186
93,tubarjal,30.4999,38.216,34.33,12,3,5.51,SA,1724859187
94,tervel,43.75,27.4,20.76,75,77,6.59,BG,1724859188
95,ordynskoye,54.3656,81.8994,13.12,84,77,1.4,RU,1724859190
96,kintampo,8.0563,-1.7306,28.49,65,99,2.65,GH,1724859191
97,tazacorte,28.629,-17.9293,25.08,77,75,7.2,ES,1724859192
98,kapa'a,22.0752,-159.319,22.28,81,21,4.17,US,1724859193
99,trail,49.0998,-117.7022,12.6,63,100,0.13,CA,1724859162
100,touros,-5.1989,-35.4608,28.37,62,28,8.51,BR,1724859195
101,illizi,26.4833,8.4667,40.82,10,2,5.36,DZ,1724859197
102,nemuro,43.3236,145.575,17.25,100,100,1.62,JP,1724859198
103,utrik,11.2278,169.8474,28.22,77,64,5.53,MH,1724859199
104,yuanping,38.7153,112.7575,16.7,67,29,0.53,CN,1724859200
105,igrim,63.1906,64.4162,15.02,85,100,2.65,RU,1724859201
106,daru,-9.0763,143.2092,25.23,75,68,5.23,PG,1724859202
107,richfield,44.8833,-93.283,19.64,91,100,3.6,US,1724859203
108,pederneiras,-22.3517,-48.775,24.88,24,14,1.01,BR,1724859003
109,cabo san lucas,22.8909,-109.9124,31.17,58,0,1.03,MX,1724859036
110,hamilton,39.1834,-84.5333,32.02,60,0,3.6,US,1724858481
111,labrador city,52.9463,-66.9114,10.95,71,100,8.23,CA,1724859013
112,tiksi,71.6872,128.8694,1.39,90,60,3.36,RU,1724859209
113,kamensk-ural'skiy,56.4185,61.9329,18.24,83,63,4.82,RU,1724859210
114,thompson,55.7435,-97.8558,16.09,63,40,3.6,CA,1724858835
115,sitka,57.0531,-135.33,14.94,88,100,6.17,US,1724859213
116,taloda,21.5667,74.2167,25.39,90,70,4.49,IN,1724859214
117,vorgashor,67.5833,63.95,11.98,67,99,2.6,RU,1724859215
118,ribeira grande,38.5167,-28.7,27.22,57,20,4.63,PT,1724859216
119,olonkinbyen,70.9221,-8.7187,4.9,87,52,4.06,SJ,1724859218
120,wewak,-3.5534,143.6268,26.1,88,36,3.34,PG,1724859219
121,bahia de kino,28.8333,-111.9333,32.02,61,3,2.97,MX,1724859220
122,hawaiian paradise park,19.5933,-154.9731,22.72,99,100,2.57,US,1724858867
123,ta`u,-14.2336,-169.5144,25.38,83,29,4.0,AS,1724859222
124,coquimbo,-29.9533,-71.3436,13.85,82,100,1.54,CL,1724859130
125,sandnessjoen,66.0217,12.6316,15.23,82,75,7.2,NO,1724858946
126,morehead city,34.7229,-76.726,31.7,70,0,3.6,US,1724859226
127,gbarnga,6.9956,-9.4722,21.78,100,100,1.13,LR,1724859227
128,markovo,57.3206,107.0881,11.89,97,92,1.16,RU,1724859229
129,gamba,-2.65,10.0,23.86,83,100,3.88,GA,1724859230
130,quatre cocos,-20.2078,57.7625,21.16,66,84,9.35,MU,1724859232
131,najran,17.4924,44.1277,29.99,33,94,5.37,SA,1724859233
132,bude,50.8243,-4.5413,18.23,81,61,2.24,GB,1724859172
133,eten,-6.9081,-79.8642,17.14,82,100,3.09,PE,1724859235
134,papatowai,-46.5619,169.4708,7.99,84,3,2.87,NZ,1724858866
135,petropavlovsk-kamchatsky,53.0452,158.6483,10.33,82,0,4.0,RU,1724859237
136,la passe,45.5549,-0.8967,23.54,63,59,4.17,FR,1724859239
137,ulladulla,-35.35,150.4667,13.82,43,65,3.04,AU,1724859240
138,turaif,31.6725,38.6637,35.14,9,0,6.17,SA,1724859241
139,east london,-33.0153,27.9116,13.52,58,0,11.83,ZA,1724859242
140,aasiaat,68.7098,-52.8699,3.01,79,100,2.98,GL,1724858980
141,kouango,4.9934,19.9619,23.45,87,100,0.29,CF,1724859244
142,qaqortoq,60.7167,-46.0333,10.1,84,100,3.17,GL,1724859246
143,lihue,21.9789,-159.3672,21.87,95,19,3.89,US,1724859212
144,genhe,50.7833,121.5167,11.58,68,75,1.15,CN,1724859248
145,saint-joseph,-21.3667,55.6167,21.21,73,48,6.58,RE,1724859249
146,ust-nera,64.5667,143.2,4.0,93,100,2.62,RU,1724859250
147,karimpur,23.9667,88.6167,28.07,81,42,2.34,IN,1724859252
148,mishkino,55.3389,63.9175,17.75,83,33,4.0,RU,1724859253
149,sisimiut,66.9395,-53.6735,6.72,87,100,2.09,GL,1724859254
150,bouake,7.6895,-5.0218,26.06,83,75,4.12,CI,1724859255
151,emerald,-23.5333,148.1667,15.75,78,65,2.29,AU,1724859256
152,tchibanga,-2.85,11.0333,26.17,66,100,3.86,GA,1724859258
153,ambon,-3.6954,128.1814,25.49,95,75,1.54,ID,1724859259
154,flin flon,54.7682,-101.865,16.91,72,75,5.14,CA,1724859260
155,doka,13.5167,35.7667,23.31,87,99,1.86,SD,1724859261
156,beloyarskiy,63.7119,66.6722,15.07,86,100,0.79,RU,1724859262
157,gadzhiyevo,69.2551,33.3362,13.64,66,100,2.68,RU,1724859263
158,pader palwo,2.8006,33.135,23.51,71,58,1.36,UG,1724859264
159,afaahiti,-17.75,-149.2833,23.98,78,41,4.22,PF,1724859266
160,murun-kuren,49.6342,100.1625,14.07,51,2,1.94,MN,1724859267
161,puerto deseado,-47.7503,-65.8938,10.12,45,73,10.94,AR,1724859268
162,punta arenas,-53.15,-70.9167,4.06,81,40,15.43,CL,1724859095
163,cromer,52.9312,1.2989,28.79,59,100,5.41,GB,1724859270
164,susuman,62.7833,148.1667,3.05,76,99,1.48,RU,1724859271
165,mobara,35.4167,140.3,25.19,88,100,1.32,JP,1724859273
166,raja,8.4596,25.678,23.84,92,57,1.87,SS,1724859274
167,lalibela,12.0333,39.0333,15.37,92,98,0.73,ET,1724859275
168,mejit,10.2753,170.8646,27.9,77,98,4.69,MH,1724859276
169,dauphin,51.1494,-100.0502,15.08,82,0,2.06,CA,1724859211
170,kwekwe,-18.9281,29.8149,25.14,14,0,1.84,ZW,1724859279
171,alofi,-19.0595,-169.9187,19.94,83,20,2.06,NU,1724859280
172,thunder bay,48.4001,-89.3168,17.95,59,75,7.72,CA,1724859059
173,vallo della lucania,40.2297,15.2658,27.46,54,79,2.38,IT,1724859282
174,mount isa,-20.7333,139.5,13.87,54,100,0.0,AU,1724859283
175,hobyo,5.3505,48.5268,25.96,82,6,10.05,SO,1724859284
176,safford,32.834,-109.7076,21.51,78,100,2.06,US,1724859286
177,verdal,63.7933,11.4817,18.85,74,25,2.94,NO,1724859287
178,jamestown,42.097,-79.2353,28.34,70,40,5.66,US,1724859288
179,pak phanang,8.3511,100.202,24.85,88,100,2.39,TH,1724859289
180,zhoucun,36.8167,117.8167,20.76,86,47,0.99,CN,1724859290
181,yigo village,13.5361,144.8886,29.16,80,100,8.75,GU,1724859291
182,hithadhoo,-0.6,73.0833,28.69,74,96,4.26,MV,1724859293
183,taoudenni,22.6783,-3.9836,46.23,8,33,2.04,ML,1724859294
184,miracema do tocantins,-9.5618,-48.3967,37.43,17,79,3.91,BR,1724859295
185,karratha,-20.7377,116.8463,24.25,42,33,4.3,AU,1724859286
186,howrah,22.5892,88.3103,30.0,79,40,1.54,IN,1724859297
187,puerto madero,14.7208,-92.4215,28.11,83,20,2.57,MX,1724859298
188,dalbandin,28.8947,64.4101,36.01,8,3,1.68,PK,1724859300
189,tongchuanshi,35.0806,109.0897,21.86,62,40,2.59,CN,1724859301
190,susangerd,31.5608,48.1831,45.06,8,0,10.14,IR,1724858891
191,faya-largeau,17.9257,19.1043,35.94,51,20,5.14,TD,1724859303
192,lazaro cardenas,17.9583,-102.2,29.63,68,83,0.94,MX,1724859304
193,kuqa,41.7278,82.9364,29.26,29,85,1.77,CN,1724859305
194,hinton,53.4001,-117.5857,10.39,80,100,2.45,CA,1724858903
195,codrington,-38.2667,141.9667,10.52,71,100,7.61,AU,1724858812
196,sukumo,32.9333,132.7333,24.88,93,100,5.5,JP,1724859309
197,dudinka,69.4058,86.1778,11.48,88,23,2.64,RU,1724859310
198,lebu,-37.6167,-73.65,11.42,62,28,6.71,CL,1724859311
199,mastic beach,40.7668,-72.8521,29.16,72,0,4.12,US,1724859312
200,nadym,65.5333,72.5167,15.25,74,31,4.8,RU,1724859315
201,slave lake,55.2834,-114.769,12.99,88,75,6.17,CA,1724859316
202,san patricio,28.017,-97.5169,30.97,50,20,4.69,US,1724859317
203,aripuana,-9.1667,-60.6333,38.55,17,0,1.65,BR,1724859266
204,barra de santo antonio,-9.4047,-35.5072,26.04,66,12,5.38,BR,1724859319
205,oak ridge,36.0104,-84.2696,30.83,63,0,1.69,US,1724859321
206,nogamerzin-yurt,43.6536,44.8889,27.24,39,85,7.73,RU,1724859322
207,atamyrat,37.8357,65.2106,27.73,20,0,6.89,TM,1724859323
208,villa gesell,-37.2639,-56.973,12.09,69,29,4.84,AR,1724859136
209,caxito,-8.5785,13.6643,25.72,62,28,5.64,AO,1724859326
210,avarua,-21.2078,-159.775,24.03,83,75,6.69,CK,1724858726
211,badagara,11.6,75.5833,26.02,81,100,0.95,IN,1724859329
212,kuvandyk,51.4781,57.3552,18.28,72,0,1.84,RU,1724859330
213,yerkoy,39.6381,34.4672,26.75,38,46,1.73,TR,1724859257
214,klyuchi,52.2667,79.1667,14.55,76,30,1.68,RU,1724859332
215,talnakh,69.4865,88.3972,11.18,92,68,1.49,RU,1724859333
216,whitehorse,60.7161,-135.0538,10.43,72,75,6.71,CA,1724859336
217,tidjikja,18.5564,-11.4271,42.6,11,98,9.42,MR,1724859337
218,puerto ayora,-0.7393,-90.3518,19.19,97,87,1.79,EC,1724859274
219,dunedin,-45.8742,170.5036,11.0,72,0,0.89,NZ,1724859339
220,belmonte,-15.8631,-38.8828,25.12,68,66,7.69,BR,1724859340
221,marand,38.4329,45.7749,23.95,32,0,3.01,IR,1724859342
222,newark,40.7357,-74.1724,31.26,61,75,4.12,US,1724859193
223,nyurba,63.2842,118.3319,7.76,65,91,1.52,RU,1724859344
224,lecheng,25.1238,113.3254,23.64,95,100,2.43,CN,1724859345
225,iskateley,67.6803,53.1512,11.72,73,90,7.51,RU,1724859346
226,kalix,65.853,23.1565,16.1,81,74,4.17,SE,1724859347
227,addiet canna,11.2667,37.4833,14.65,91,100,0.66,ET,1724859349
228,geiro,-6.15,36.8667,20.05,75,67,3.19,TZ,1724859350
229,chui,-33.6971,-53.4616,15.31,62,42,3.66,UY,1724859351
230,sanctuary point,-35.1114,150.629,15.05,39,87,4.96,AU,1724859352
231,oak hill,37.9723,-81.1487,30.44,49,4,1.81,US,1724859353
232,prince rupert,54.3161,-130.3201,12.05,93,100,6.17,CA,1724859354
233,byaroza,52.5314,24.9786,26.34,53,83,4.24,BY,1724859356
234,chumphon,10.3333,98.8333,22.67,94,100,3.52,TH,1724859357
235,malango,-2.9627,119.9001,18.12,99,69,0.75,ID,1724859358
236,xilin hot,43.9667,116.0333,18.32,50,92,2.55,CN,1724859359
237,wuxue,29.8506,115.5525,23.41,89,76,1.43,CN,1724859360
238,harper,4.375,-7.7169,24.59,84,100,5.64,LR,1724859361
239,boende,-0.2167,20.8667,30.89,48,65,3.54,CD,1724859364
240,tofol,5.3248,163.0078,28.71,75,100,4.65,FM,1724859365
241,ancud,-41.8697,-73.8203,8.82,61,0,2.2,CL,1724858898
242,pundong,-7.9522,110.3486,22.22,92,76,0.21,ID,1724859367
243,newman,37.3138,-121.0208,28.02,20,0,1.29,US,1724859231
244,newport,51.5877,-2.9984,20.06,89,100,4.0,GB,1724859084
245,geraldton,-28.7667,114.6,19.23,82,100,4.12,AU,1724859078
246,borba,-4.3878,-59.5939,38.76,20,15,1.58,BR,1724859372
247,lively,46.4334,-81.1498,12.79,76,99,4.54,CA,1724859373
248,fort-shevchenko,44.5086,50.263,27.75,30,0,6.96,KZ,1724859374
249,keflavik,64.0049,-22.5624,11.24,71,0,9.26,IS,1724859375
250,saynshand,44.8824,110.1163,25.38,33,1,4.64,MN,1724859376
251,galle,6.0367,80.217,26.68,84,100,4.89,LK,1724859378
252,san isidro,-12.1167,-77.05,15.77,77,100,2.57,PE,1724859091
253,trairi,-3.2778,-39.2689,29.65,54,86,8.13,BR,1724859193
254,yelizovo,53.1873,158.3805,11.08,82,0,4.0,RU,1724859286
255,al jawf,29.5,38.75,34.61,18,7,5.12,SA,1724859382
256,island harbour,50.724,-1.2758,24.3,66,93,1.34,GB,1724859383
257,bamboo flat,11.7,92.7167,26.05,89,100,2.57,IN,1724858804
258,shiyan,32.6475,110.7781,21.14,84,15,1.01,CN,1724859386
259,west plains,36.7281,-91.8524,30.71,67,20,1.79,US,1724859387
260,korla,41.7597,86.1469,30.5,26,56,3.43,CN,1724859388
261,chengyang,27.0892,119.6453,25.03,98,26,0.39,CN,1724859389
262,savarkundla,21.3395,71.3083,25.4,88,100,8.23,IN,1724859390
263,gore,-46.1028,168.9436,3.9,99,7,0.9,NZ,1724859392
264,ayora,39.0585,-1.0563,31.47,39,4,6.49,ES,1724859393
265,tazovsky,67.4667,78.7,11.82,81,40,2.42,RU,1724859394
266,kavaratti,10.5669,72.642,27.13,88,86,4.85,IN,1724859395
267,kapuskasing,49.4169,-82.4331,12.05,66,75,4.63,CA,1724859182
268,puerto lempira,15.2667,-83.7667,31.08,79,20,0.0,HN,1724859397
269,vrable,48.2437,18.3085,33.16,28,67,3.01,SK,1724859399
270,darwin,-12.4611,130.8418,23.99,78,6,0.51,AU,1724859400
271,palmer,42.1584,-72.3287,29.17,59,75,5.14,US,1724859401
272,nova vicosa,-17.8919,-39.3719,24.52,62,34,5.79,BR,1724859402
273,kirakira,-10.4544,161.9205,24.21,87,82,4.6,SB,1724859403
274,severobaykal'sk,55.65,109.3167,10.11,96,100,1.59,RU,1724859404
275,badger,64.8,-147.5333,9.34,93,75,0.0,US,1724858890
276,namsos,64.4662,11.4957,17.95,77,75,0.0,NO,1724859407
277,mumford,5.2618,-0.759,24.7,83,96,5.15,GH,1724859408
278,palasa,18.7667,84.4167,26.08,89,100,3.38,IN,1724859409
279,moree,-29.4667,149.85,14.39,36,0,3.6,AU,1724859268
280,saint augustine beach,29.8505,-81.2654,32.25,74,12,4.12,US,1724859412
281,midvagur,62.0511,-7.1939,13.46,94,75,5.66,FO,1724859414
282,papao,-17.75,-149.55,23.82,73,14,3.04,PF,1724859415
283,souillac,-20.5167,57.5167,21.21,78,75,8.23,MU,1724859416
284,chonchi,-42.6128,-73.8092,10.8,65,4,2.42,CL,1724859417
285,tingo maria,-9.2895,-76.0088,25.17,69,75,1.03,PE,1724859418
286,brookings,44.3114,-96.7984,23.03,55,0,4.54,US,1724859419
287,el charco,2.4769,-78.1105,29.34,72,44,2.12,CO,1724859421
288,vilhena,-12.7406,-60.1458,31.12,29,4,3.6,BR,1724859264
289,ugoofaaru,5.6667,73.0,28.44,77,95,2.59,MV,1724859423
290,smithers,54.7804,-127.1743,6.18,93,20,1.03,CA,1724859424
291,margate,51.3813,1.3862,27.71,49,89,4.4,GB,1724859425
292,kara suu,40.7046,72.8667,21.98,52,40,3.0,KG,1724859427
293,luderitz,-26.6481,15.1594,16.66,46,0,14.49,NA,1724859356
294,masterton,-40.9597,175.6575,11.92,76,94,5.38,NZ,1724859431
295,grand island,40.925,-98.342,26.12,75,0,4.12,US,1724859256
296,tura,25.5198,90.2201,24.9,90,13,1.15,IN,1724858870
297,ghat,24.9647,10.1728,39.07,11,45,3.19,LY,1724859434
298,las tablas,7.7667,-80.2833,29.59,71,28,3.6,PA,1724859436
299,solapur,17.6833,75.9167,25.03,79,55,6.53,IN,1724859437
300,vyaz'ma,55.2104,34.2951,20.18,73,0,3.01,RU,1724859438
301,santiago de cao,-7.9589,-79.2392,17.07,88,100,3.6,PE,1724859439
302,qinzhou,21.95,108.6167,28.71,80,100,2.34,CN,1724859440
303,orsa,54.5153,30.4053,23.11,67,18,4.19,BY,1724859441
304,selfoss,63.9331,-20.9971,11.14,68,100,3.46,IS,1724859443
305,turinskaya sloboda,57.6232,64.3858,18.48,91,99,3.12,RU,1724859444
306,bandon,51.7469,-8.7425,18.77,58,22,7.24,IE,1724859445
307,dashitou,43.3067,128.5114,15.39,94,63,1.35,CN,1724859446
308,roccella ionica,38.322,16.4009,23.32,62,60,3.03,IT,1724859447
309,zaozersk,69.4005,32.4476,13.61,63,100,2.94,RU,1724859448
310,roma,43.2128,-75.4557,24.08,73,75,3.6,US,1724859400
311,santa marta de ortigueira,43.6833,-7.85,21.25,100,100,0.45,ES,1724859451
312,kuching,1.55,110.3333,24.99,98,40,0.0,MY,1724859452
313,koulamoutou,-1.1303,12.4736,35.67,27,80,1.32,GA,1724859453
314,rabak,13.1809,32.74,29.36,59,50,2.9,SD,1724859454
315,mili,6.0815,171.735,28.8,71,84,4.59,MH,1724859455
316,sampit,-2.5333,112.95,23.28,97,100,0.68,ID,1724859456
317,tralee,52.2704,-9.7026,18.14,63,20,7.2,IE,1724859423
318,dryden,49.7833,-92.7503,17.16,59,0,3.6,CA,1724859460
319,olyokminsk,60.3736,120.4264,8.6,90,100,1.79,RU,1724859461
320,muisne,0.6,-80.0333,25.83,82,94,4.06,EC,1724859382
321,port alfred,-33.5906,26.891,12.88,57,13,5.81,ZA,1724859363
322,tadine,-21.55,167.8833,18.76,79,1,4.16,NC,1724859465
323,lompoc,34.6391,-120.4579,13.4,100,100,1.54,US,1724859404
324,vilyuysk,63.7553,121.6247,4.95,62,23,2.26,RU,1724859467
325,kirensk,57.7853,108.1119,11.75,97,100,1.11,RU,1724859468
326,necochea,-38.5473,-58.7368,14.96,59,62,3.88,AR,1724859470
327,bereeda,11.8704,51.0579,30.05,65,99,0.85,SO,1724859471
328,kirkwood,38.5834,-90.4068,28.7,71,75,5.66,US,1724859293
329,copala,16.65,-98.9833,28.66,65,20,1.04,MX,1724859473
330,luba,3.4568,8.5547,25.75,86,39,3.25,GQ,1724859474
331,dhidhdhoo,6.8833,73.1,28.43,77,100,3.85,MV,1724859475
332,camabatela,-8.1881,15.375,31.79,13,14,0.28,AO,1724859208
333,mount gambier,-37.8333,140.7667,9.78,76,94,4.01,AU,1724859243
334,saint-philippe,-21.3585,55.7679,20.71,76,50,7.41,RE,1724859479
335,zahedan,29.4963,60.8629,32.95,15,0,6.17,IR,1724859480
336,kutum,14.2,24.6667,26.46,59,97,0.97,SD,1724859481
337,bac lieu,9.285,105.7244,26.08,89,100,4.08,VN,1724859482
338,puerto madryn,-42.7692,-65.0385,15.32,34,84,6.51,AR,1724859484
339,fairmont,39.4851,-80.1426,32.33,52,8,0.45,US,1724859225
340,kolobrzeg,54.1757,15.5834,24.56,59,0,4.47,PL,1724859487
341,st. john's,47.5649,-52.7093,24.04,67,75,8.23,CA,1724859438
342,saint-pierre,-21.3393,55.4781,21.82,60,20,4.63,RE,1724859489
343,arkhangel'sk,64.5401,40.5433,16.06,63,0,4.0,RU,1724859402
344,pacific grove,36.6177,-121.9166,13.06,88,0,0.0,US,1724859485
345,renukut,24.2,83.0333,24.61,87,37,1.11,IN,1724859493
346,stettler,52.3168,-112.7186,11.06,97,100,5.52,CA,1724859494
347,vilyuchinsk,52.9306,158.4028,11.15,86,60,4.36,RU,1724859495
348,ubari,26.5921,12.7805,38.58,13,2,5.24,LY,1724859498
349,cananeia,-25.0147,-47.9267,15.84,80,100,2.25,BR,1724859499
350,kaliningrad,54.7065,20.511,24.43,44,2,3.58,RU,1724859457
351,swakopmund,-22.6833,14.5333,16.1,71,9,4.47,NA,1724859501
352,columbia falls,48.3725,-114.1815,9.82,68,100,6.69,US,1724859502
353,remire-montjoly,4.9167,-52.2667,32.02,62,40,2.57,GF,1724859503
354,kingston,17.997,-76.7936,34.53,58,20,2.06,JM,1724859278
355,hilo,19.7297,-155.09,22.84,99,100,2.57,US,1724859508
356,alesund,62.4723,6.1549,18.33,88,75,3.09,NO,1724859509
357,sao jose da coroa grande,-8.8978,-35.1478,26.59,65,29,6.55,BR,1724859511
358,morondava,-20.2833,44.2833,23.83,87,0,3.78,MG,1724859513
359,uribia,11.7139,-72.266,34.52,42,12,8.97,CO,1724859514
360,hagen,51.35,7.4667,30.1,51,2,1.79,DE,1724859515
361,namibe,-15.1961,12.1522,19.1,79,20,4.55,AO,1724859304
362,la ronge,55.1001,-105.2842,19.14,63,40,4.12,CA,1724859518
363,port douglas,-16.4833,145.4667,21.23,89,26,3.04,AU,1724859519
364,doffing,26.2745,-98.3858,31.51,75,0,3.09,US,1724859520
365,richards bay,-28.783,32.0377,18.59,73,100,5.9,ZA,1724859521
366,eaglehawk,-36.7333,144.25,8.09,57,98,2.24,AU,1724859522
367,miyako,39.6367,141.9525,22.09,99,100,1.62,JP,1724859523
368,quellon,-43.1167,-73.6167,9.37,76,6,4.32,CL,1724859525
369,kununurra,-15.7667,128.7333,21.99,60,71,0.0,AU,1724859526
370,sept-iles,50.2001,-66.3821,17.81,55,75,5.66,CA,1724859481
371,rongelap,11.1635,166.8941,28.34,77,100,4.15,MH,1724859528
372,alta,69.9689,23.2717,14.59,55,0,1.54,NO,1724859529
373,urzhar,47.093,81.6294,19.76,37,30,6.03,KZ,1724859530
374,neiafu,-18.65,-173.9833,15.38,100,20,0.0,TO,1724859532
375,mazabuka,-15.856,27.748,27.73,13,13,1.94,ZM,1724859533
376,kailua-kona,19.6406,-155.9956,23.98,83,0,3.09,US,1724859534
377,edd,13.9297,41.6925,31.48,64,100,1.83,ER,1724859535
378,hammerfest,70.6634,23.6821,12.25,76,75,2.57,NO,1724859536
379,zakynthos,37.7914,20.8953,31.62,51,20,2.06,GR,1724859537
380,tres palos,18.1833,-101.6167,26.79,77,98,1.34,MX,1724859539
381,kayyerkan,69.3786,87.7439,11.7,92,53,2.99,RU,1724859540
382,saint-louis,16.3333,-15.0,39.16,29,100,4.22,SN,1724859541
383,yashikira,9.7667,3.4,27.95,75,71,3.03,NG,1724859542
384,san jose de jachal,-30.2406,-68.7469,14.64,28,59,2.41,AR,1724859544
385,batken,39.8333,71.0,12.38,54,75,2.3,KG,1724859545
386,crotone,39.0851,17.1178,30.97,58,0,4.63,IT,1724859546
387,tosontsengel,48.7567,98.2839,10.87,43,1,0.83,MN,1724859547
388,choele choel,-39.2667,-65.6833,17.08,38,100,3.37,AR,1724859548
389,rio grande,-32.035,-52.0986,14.64,67,0,3.99,BR,1724859549
390,gaspe,48.8334,-64.4819,18.12,63,75,4.63,CA,1724859273
391,izluchinsk,60.9794,76.9242,16.01,84,89,4.06,RU,1724859552
392,palembang,-2.9167,104.7458,27.05,83,20,1.54,ID,1724859553
393,ban dung,17.699,103.2596,25.8,87,91,1.62,TH,1724859554
394,bedesa,8.9,40.7833,20.14,70,22,0.55,ET,1724859555
395,tolanaro,-25.0319,46.9987,23.04,73,0,11.83,MG,1724859556
396,fray luis beltran,-39.3167,-65.7667,16.57,39,100,2.59,AR,1724859557
397,naze,28.3667,129.4833,26.51,86,100,6.57,JP,1724859559
398,boca suno,-0.7167,-77.1333,28.9,64,30,1.18,EC,1724859459
399,vryheid,-27.7695,30.7917,14.18,80,7,2.81,ZA,1724859561
400,strezhevoy,60.7333,77.5889,14.9,87,90,3.12,RU,1724859563
401,greenville,35.6127,-77.3663,32.29,62,0,2.57,US,1724859565
402,linevo,54.4589,83.3764,11.33,89,11,1.15,RU,1724859566
403,rohru,31.2167,77.75,18.62,91,67,0.6,IN,1724859567
404,ocean shores,46.9737,-124.1563,12.19,95,2,0.89,US,1724859568
405,turkmenbasy,40.0222,52.9552,33.43,15,0,10.29,TM,1724859398
406,isola di capo rizzuto,38.96,17.0933,30.41,58,0,4.63,IT,1724859570
407,south hedland,-20.4089,118.5983,22.96,53,6,4.63,AU,1724859571
408,bhimunipatnam,17.8833,83.4333,24.73,88,100,2.3,IN,1724859573
409,holualoa,19.6228,-155.9522,21.91,95,0,3.09,US,1724859574
410,shebekino,50.4097,36.9136,28.42,23,97,3.81,RU,1724859575
411,canitas de felipe pescador,23.6,-102.7167,21.75,45,72,4.48,MX,1724859576
412,constantia,44.1833,28.65,26.38,58,66,1.96,RO,1724859420
413,ciudad lazaro cardenas,17.9583,-102.2,29.63,68,83,0.94,MX,1724859304
414,saipan,15.1355,145.701,29.39,84,40,6.17,MP,1724859580
415,pudozh,61.8099,36.5345,16.8,61,90,2.24,RU,1724859581
416,ust'-kut,56.7938,105.7672,12.0,97,72,1.64,RU,1724859582
417,sao felix do xingu,-6.6447,-51.995,38.89,17,18,2.11,BR,1724859375
418,jwaneng,-24.6004,24.7303,20.48,11,0,5.43,BW,1724859584
419,taradale,-39.5333,176.85,13.9,62,100,1.79,NZ,1724859585
420,chancay,-11.5714,-77.2672,18.19,73,86,3.85,PE,1724859587
421,guadalajara,20.6667,-103.3333,21.87,78,75,0.0,MX,1724859476
422,uyuni,-20.4597,-66.825,12.77,23,47,6.61,BO,1724859589
423,ar ruseris,11.8659,34.3869,24.73,85,92,1.54,SD,1724859590
424,cururupu,-1.8283,-44.8683,29.36,61,100,2.2,BR,1724859591
425,mata-utu,-13.2816,-176.1745,25.36,83,16,6.25,WF,1724859592
426,lodwar,3.1191,35.5973,34.18,28,17,5.44,KE,1724859460
427,bodaybo,57.8506,114.1933,12.29,96,100,1.91,RU,1724859595
428,jayrud,33.8074,36.7404,29.22,23,0,3.99,SY,1724859596
429,antofagasta,-23.65,-70.4,13.6,74,13,4.08,CL,1724859494
430,usinsk,65.9939,57.5281,14.54,56,98,6.77,RU,1724859598
431,minas de marcona,-15.2119,-75.1103,16.96,55,88,5.46,PE,1724859599
432,ciudad constitucion,25.0369,-111.6644,29.21,43,0,1.21,MX,1724859600
433,rabo de peixe,37.8,-25.5833,26.73,50,20,6.17,PT,1724859602
434,tsiombe,-25.3,45.4833,23.08,65,0,2.87,MG,1724859603
435,cadale,2.7603,46.3222,26.48,80,93,6.45,SO,1724859604
436,tucuma,-0.1833,-50.05,32.57,53,28,3.69,BR,1724859605
437,concordia,-31.393,-58.0209,19.04,52,0,4.63,AR,1724859563
438,castillos,-34.1667,-53.8333,15.68,56,53,3.2,UY,1724859607
439,bure,10.7,37.0667,14.16,96,100,1.07,ET,1724859609
440,mount pleasant,32.7941,-79.8626,32.21,74,0,2.57,US,1724859589
441,sinabang,2.4803,96.3801,26.01,82,96,1.96,ID,1724859611
442,uliastay,47.7417,96.8444,12.53,36,0,2.5,MN,1724859612
443,yuzhno-kurilsk,44.0306,145.8556,17.83,96,100,1.53,RU,1724859613
444,chai badan,15.2,101.1333,25.59,91,100,2.98,TH,1724859614
445,nuriootpa,-34.4833,139.0,6.09,99,5,2.99,AU,1724859616
446,xudat,41.631,48.681,23.48,68,0,2.66,AZ,1724859617
447,ibshaway,29.358,30.6814,36.11,22,100,4.89,EG,1724859618
448,sotuta,20.6,-89.0167,33.1,51,81,1.51,MX,1724859619
449,kone,-21.0595,164.8658,17.56,86,0,2.44,NC,1724859620
450,cochin,9.9399,76.2602,26.99,82,100,2.91,IN,1724859354
451,chinchilla,-26.75,150.6333,18.34,73,0,4.25,AU,1724859623
452,baruun-urt,46.6806,113.2792,17.55,73,89,3.87,MN,1724859624
453,djamaa,33.5339,5.9931,38.1,17,30,0.82,DZ,1724859625
454,teguise,29.0605,-13.564,25.12,50,20,9.77,ES,1724859626
455,tikapur,28.5,81.1333,25.71,92,100,2.15,NP,1724859627
456,nova olimpia,-14.7972,-57.2881,38.33,14,2,1.9,BR,1724859628
457,kili,5.6439,169.1211,28.27,75,100,5.33,MH,1724859630
458,puerto san jose,13.9256,-90.8244,30.03,66,0,5.14,GT,1724859631
459,vila franca do campo,37.7167,-25.4333,27.23,52,40,2.12,PT,1724859632
460,achinsk,56.2694,90.4993,11.76,94,74,2.49,RU,1724859633
461,santa elena de uairen,4.6167,-61.1333,25.34,57,94,1.55,VE,1724859634
462,saint david's,12.0333,-61.6667,30.69,74,20,6.17,GD,1724859635
463,valdivia,-39.8142,-73.2459,9.05,63,13,2.73,CL,1724858901
464,makhambet,47.6667,51.5833,26.35,21,0,3.52,KZ,1724859638
465,kurchatov,51.6601,35.6521,26.69,33,100,4.14,RU,1724859639
466,funafuti,-8.5243,179.1942,27.0,89,75,0.0,TV,1724859439
467,shengli,37.4564,118.4856,22.08,85,45,1.34,CN,1724859641
468,brisas de zicatela,15.8369,-97.0419,27.29,78,75,4.12,MX,1724859642
469,santo antonio,-6.3106,-35.4789,29.63,45,84,7.76,BR,1724859644
470,kwang binh,17.4833,106.6,28.05,73,85,2.76,VN,1724859645
471,okhotsk,59.3833,143.3,13.31,80,100,3.12,RU,1724859646
472,vanimo,-2.6741,141.3028,25.57,93,60,2.27,PG,1724859647
473,puerto aysen,-45.4,-72.7,7.0,99,99,1.91,CL,1724859648
474,dunay,42.8803,132.3375,20.01,78,100,1.54,RU,1724859649
475,colonia menno,-22.3667,-59.8167,29.82,19,5,3.42,PY,1724859650
476,crane,31.3974,-102.3501,27.26,53,10,3.81,US,1724859652
477,makarov,48.6333,142.8,15.81,95,4,2.6,RU,1724859653
478,balqash,46.8481,74.995,23.4,37,100,5.79,KZ,1724859654
479,kuzovatovo,53.5468,47.6866,22.61,52,12,0.7,RU,1724859655
480,adjumani,3.3779,31.7909,24.26,77,26,0.33,UG,1724859656
481,bikenibeu village,1.3673,173.1241,27.98,78,75,4.63,KI,1724859657
482,piton saint-leu,-21.2196,55.3151,19.06,68,20,4.12,RE,1724859659
483,cockburn town,21.4612,-71.1419,28.53,75,4,7.11,TC,1724859660
484,portland,45.5234,-122.6762,14.23,85,20,1.54,US,1724859325
485,marsh harbour,26.5412,-77.0636,28.98,72,5,6.0,BS,1724859662
486,lazarevskoye,43.9061,39.3331,23.76,83,13,0.28,RU,1724859663
487,bunia,1.5667,30.25,21.69,74,22,1.56,CD,1724859664
488,salamanca,40.8333,-6.0,31.66,19,58,6.55,ES,1724859666
489,monastir,35.7833,10.8333,29.99,58,40,3.6,TN,1724859667
490,puerto rico,-26.796,-55.024,25.66,33,4,1.68,AR,1724859668
491,borova,50.1763,30.1043,30.55,25,80,4.11,UA,1724859669
492,fale old settlement,-9.3852,-171.2468,27.99,73,0,6.76,TK,1724859670
493,temiskaming shores,47.4938,-79.7153,11.89,43,38,3.67,CA,1724859671
494,misratah,32.3754,15.0925,29.83,56,0,6.83,LY,1724859673
495,zolotonosha,49.6689,32.0377,29.59,29,100,4.16,UA,1724859674
496,nuuk,64.1835,-51.7216,7.34,87,100,12.86,GL,1724859675
497,vernon,50.2581,-119.2691,13.29,76,20,0.51,CA,1724859516
498,isangel,-19.55,169.2667,21.01,73,11,4.69,VU,1724859677
499,qujing,25.4833,103.7833,17.05,93,34,1.04,CN,1724859453
500,fukuecho,32.6881,128.8419,26.62,84,94,16.63,JP,1724859680
501,puerto baquerizo moreno,-0.9,-89.6,18.55,100,100,4.12,EC,1724859609
502,grand falls-windsor,48.9332,-55.6649,23.06,73,100,2.24,CA,1724859457
503,kruisfontein,-34.0033,24.7314,8.9,53,44,10.55,ZA,1724859684
504,lipno,52.8444,19.1785,30.12,51,20,1.34,PL,1724859685
505,tutoia,-2.7619,-42.2744,28.72,63,35,6.24,BR,1724859686
506,woolgoolga,-30.1106,153.2007,16.93,52,2,2.46,AU,1724859687
507,gisborne,-38.6533,178.0042,11.0,82,100,5.53,NZ,1724859688
508,ingeniero jacobacci,-41.3427,-69.5448,7.37,48,0,1.11,AR,1724859689
509,rockland,41.1668,-74.0496,29.98,71,48,4.7,US,1724859691
510,eydhafushi,5.1033,73.0708,28.67,75,84,2.64,MV,1724859692
511,soe,-9.8607,124.284,17.16,90,34,2.38,ID,1724859693
512,bereket,39.2446,55.5154,29.66,22,0,7.06,TM,1724859694
513,gebeit,21.0667,36.3167,35.61,29,32,1.35,SD,1724859695
514,papakura,-37.0657,174.9439,13.54,94,20,3.09,NZ,1724859698
515,tezu,27.9167,96.1667,26.16,86,0,1.54,IN,1724859699
516,sao joao da barra,-21.6403,-41.0511,25.05,64,64,4.73,BR,1724859700
517,al hilaliyya,14.9398,33.234,27.42,70,100,3.36,SD,1724859701
518,qarqaraly,49.4058,75.4742,11.36,60,85,3.2,KZ,1724859702
519,dori,14.0354,-0.0345,31.13,53,98,5.26,BF,1724859703
520,port isabel,26.0734,-97.2086,31.69,78,20,1.54,US,1724859705
521,gardendale,33.6601,-86.8128,33.12,52,0,2.06,US,1724859706
522,formosa do rio preto,-11.0483,-45.1931,33.07,15,6,5.18,BR,1724859707
523,piacabucu,-10.4056,-36.4344,26.89,61,16,5.35,BR,1724859708
524,amalapuram,16.5833,82.0167,24.79,93,100,1.5,IN,1724859709
525,kourou,5.1552,-52.6478,33.69,48,31,0.83,GF,1724859710
526,floresta,-8.6011,-38.5686,32.12,24,9,9.4,BR,1724859712
527,monte carmelo,-18.7247,-47.4986,28.79,31,0,4.15,BR,1724859713
528,lamu,-2.2717,40.902,24.98,85,10,6.84,KE,1724859460
529,erdaojiang,41.7764,126.0319,16.52,91,0,1.15,CN,1724859715
530,charters towers,-20.1,146.2667,16.77,94,0,2.62,AU,1724859716
531,yurgamysh,55.3714,64.4656,17.66,84,50,3.56,RU,1724859717
532,san antonio de pale,-1.4014,5.6325,23.78,76,94,4.93,GQ,1724859450
533,ascencion de guarayos,-15.8963,-63.1881,35.41,18,6,1.81,BO,1724859721
534,tierp,60.3427,17.5181,24.15,38,100,3.37,SE,1724859722
535,chibougamau,49.9168,-74.3659,8.79,71,100,6.69,CA,1724859723
536,pemangkat,1.1667,108.9667,25.53,89,100,8.01,ID,1724859724
537,homer,59.6425,-151.5483,9.94,93,100,3.09,US,1724859726
538,tangalle,6.024,80.7911,26.79,82,100,4.9,LK,1724859727
539,nogliki,51.8333,143.1667,14.61,94,2,2.69,RU,1724859728
540,raahe,64.6833,24.4833,14.85,93,100,9.16,FI,1724859729
541,robertsport,6.7533,-11.3686,23.9,94,100,4.47,LR,1724859730
542,acarau,-2.8856,-40.12,31.91,49,84,8.52,BR,1724859731
543,chernyakhovsk,54.6335,21.8156,25.08,42,4,3.55,RU,1724859733
544,shushtar,32.0455,48.8567,43.68,7,3,7.53,IR,1724859734
545,zhaqsy,51.9083,67.3133,15.15,59,0,1.17,KZ,1724859735
546,darlowo,54.421,16.4107,24.69,54,0,2.96,PL,1724859736
547,ceeldheer,3.8488,47.1806,26.78,77,56,7.79,SO,1724859737
548,sao gabriel da cachoeira,-0.1303,-67.0892,29.89,70,20,1.03,BR,1724859740
549,xianshuigu,38.985,117.3828,25.0,73,0,3.0,CN,1724859741
550,urengoy,65.9667,78.3667,15.83,67,86,1.9,RU,1724859594
551,emure-ekiti,7.4361,5.4593,25.85,82,100,2.6,NG,1724859743
552,senanga,-16.1167,23.2667,29.44,8,71,1.65,ZM,1724859744
553,bonthe,7.5264,-12.505,23.51,92,100,1.04,SL,1724859745
554,laguna,38.421,-121.4238,24.56,46,0,0.0,US,1724859507
555,hirara,24.8,125.2833,28.15,89,61,1.54,JP,1724859749
556,aba,5.1066,7.3667,28.04,73,98,3.56,NG,1724859750
557,smara,26.7384,-11.6719,32.26,23,31,9.57,EH,1724859751
558,weinan,34.5036,109.5089,24.67,62,11,1.56,CN,1724859752
559,suva,-18.1416,178.4415,16.71,100,20,1.03,FJ,1724859754
560,pangkalanbuun,-2.6833,111.6167,23.35,99,100,0.88,ID,1724859755
561,huanggang,23.677,116.9996,26.79,92,100,0.73,CN,1724859756
562,imeni morozova,59.9757,31.0376,20.51,99,36,2.21,RU,1724859757
563,porto velho,-8.7619,-63.9039,31.03,37,0,1.54,BR,1724859722
564,kragero,58.8693,9.4149,17.82,82,100,2.65,NO,1724859759
565,southampton,50.904,-1.4043,25.66,59,20,3.09,GB,1724859761
566,fortuna,40.5982,-124.1573,12.51,100,0,0.0,US,1724859762
567,bontang,0.1333,117.5,25.36,90,99,4.19,ID,1724859763
568,biryusinsk,55.9634,97.8235,12.19,95,87,3.0,RU,1724859764
569,polyarnyy,69.1989,33.4478,13.34,66,99,2.44,RU,1724859765
570,happy valley-goose bay,53.3168,-60.3315,18.17,52,40,6.69,CA,1724859766
571,monywa,22.1167,95.1333,29.68,70,100,2.4,MM,1724859769
572,voi,-3.3945,38.563,24.66,67,88,6.2,KE,1724859770
573,westport,41.1415,-73.3579,30.87,69,59,0.45,US,1724859771
574,chiredzi,-21.05,31.6667,35.99,26,0,0.0,ZW,1724859772
575,lycksele,64.5954,18.6735,18.93,68,75,2.57,SE,1724859774
576,waingapu,-9.6567,120.2641,24.19,82,70,2.56,ID,1724859775
577,fort st. john,56.2499,-120.8529,6.94,100,0,3.09,CA,1724859776
578,kimbe,-5.5502,150.1429,24.48,93,19,1.92,PG,1724859777
579,es castell,39.8795,4.2854,27.38,65,40,1.54,ES,1724859778
580,miles city,46.4083,-105.8406,16.54,51,100,14.92,US,1724859779
581,port hedland,-20.3167,118.5667,23.03,53,5,4.63,AU,1724859780
582,jiayuguan,39.8167,98.3,25.83,28,38,2.92,CN,1724859782
583,valparaiso,-33.0393,-71.6273,14.44,81,100,1.54,CL,1724859602
584,russkiy kameshkir,52.8589,46.0892,23.22,32,22,2.24,RU,1724859784
585,okha,53.5739,142.9478,14.94,90,9,5.29,RU,1724859645
586,priozersk,61.0393,30.1291,20.05,68,74,4.68,RU,1724859786
587,puerto leguizamo,-0.1934,-74.7819,32.35,46,7,1.11,CO,1724859787
588,santo estevao,-12.4303,-39.2514,27.89,50,59,5.78,BR,1724859789
589,nishinoomote,30.7333,131.0,27.01,89,100,26.54,JP,1724859367
590,sosnovo-ozerskoye,52.5249,111.5418,11.23,59,30,1.34,RU,1724859791
591,mambajao,9.2504,124.7156,27.69,80,100,4.51,PH,1724859792
592,varash,51.3485,25.8497,29.16,33,2,4.33,UA,1724859793
593,middleton,53.55,-2.2,19.08,85,100,2.73,GB,1724859657
594,jayapura,-2.5333,140.7,24.66,94,67,1.82,ID,1724859796
595,chanika,-5.4167,38.0167,21.31,80,66,4.25,TZ,1724859797
596,nicoya,10.1483,-85.452,29.47,72,53,2.03,CR,1724859798
597,mamboma,8.0833,-11.6833,21.79,98,100,2.21,SL,1724859799
598,urzhum,57.1141,49.9996,19.83,74,17,4.58,RU,1724859800
599,ilhabela,-23.7781,-45.3581,20.12,64,0,2.01,BR,1724859645
600,an nuhud,12.7,28.4333,27.01,69,96,3.2,SD,1724859803
601,constitucion,-35.3333,-72.4167,14.48,55,61,1.8,CL,1724859804
602,st johnsbury,44.4253,-72.0151,18.86,90,100,4.63,US,1724859805
603,walvis bay,-22.9575,14.5053,16.16,58,0,12.04,NA,1724859807
